id,equ_id,location,subdistric,distric,provine,lat,lng
1,CA01,ตรงข้ามที่ทำการกองทุนหมู่บ้าน บ้านใหม่หินเรียง,วังตะเคียน,หนองมะโมง,ชัยนาท,15.30569,99.81876
2,CA02,โรงเรียนวัดโพธิ์ประสิทธิ์,หาดอาษา,สรรพยา,ชัยนาท,15.13909,100.25203
3,CB01,บ้านละว้าวังควาย(บริเวณวัด),วังยาว,ด่านช้าง,สุพรรณบุรี,14.85798,99.39802
4,CB02,บ้านเลขที่ 32/1 บ้านกกตาล ม.9,ห้วยขมิ้น,ด่านช้าง,สุพรรณบุรี,14.96203,99.55334
5,CC01,ที่ว่าการอำเภอเมืองลพบุรี,ทะเลชุบศร,เมือง,ลพบุรี,14.79838,100.65306
6,CC02,ที่ว่าการอำเภอชัยบาดาล,ลำนารายณ์,ชัยบาดาล,ลพบุรี,15.20594,101.13691
7,CD01,เทศบาลตำบลทองผาภูมิ,ทองผาภูมิ,ทองผาภูมิ,กาญจนบุรี,14.74375,98.63319
8,CD02,เทศบาลตำบลเอราวัณ,เอราวัณ,ศรีสวัสดิ์,กาญจนบุรี,14.38365,99.13776
9,CD03,เทศบาลเมืองกาญจนบุรี,บ้านเหนือ,เมือง,กาญจนบุรี,14.02126,99.52745
10,CD06,บริเวณใกล้ถังประปา คพต. ม.4,วังดัง,เมือง,กาญจนบุรี,14.13534,99.33951
11,CD07,เทศบาลตำบลลาดหญ้า,ลาดหญ้า,เมือง,กาญจนบุรี,14.1026,99.42197
12,CD08,เขื่อนท่าทุ่งนา,ช่องสะเดา,เมือง,กาญจนบุรี,14.22953,99.23935
13,CD09,ที่ทำการอำเภอไทรโยค,ลุ่มสุ่ม,ไทรโยค,กาญจนบุรี,14.11447,99.1447
14,CE01,บ้านสระนำ ม.2,บ้านไร่,บ้านไร่,อุทัยธานี,15.06238,99.505139
15,CE02,บ้านไซเบอร์ ม.1,ทองหลาง,ห้วยคต,อุทัยธานี,15.31163,99.45358
16,CF01,สำนักฆ์สุทธิธรรมรังษี (ผาปก),สวนผึ้ง,สวนผึ้ง,ราชบุรี,13.57121,99.22865
17,CF02,อบต.บ้านคา,บ้านคา,บ้านคา,ราชบุรี,13.4308,99.40961
18,CF03,ที่ทำการผู้ใหญ่บ้าน ม.4 บ้านไทยประจัน (ผญบ.สุพล),ยางหัก,ปากท่อ,ราชบุรี,13.27773,99.5594
19,CG01,เขาน้อย,สาริกา,เมือง,นครนายก,14.3228,101.29383
20,CG02,ที่ทำการ อบต.ป่าขะ,ป่าขะ,บ้านนา,นครนายก,14.30136,101.07044
21,CG03,บ้านกำนัน,นาหินลาด,ปากพลี,นครนายก,14.2308,101.36517
22,CJ03,ประปาหมู่บ้าน ม.2,น้ำเต้า,บางบาล,พระนครศรีอยุธยา,14.3263,100.44847
23,CJ04,ทต.บางปะหัน,บางปะหัน,บางปะหัน,พระนครศรีอยุธยา,14.46197,100.54561
24,CP02,องค์การบริหารส่วนตาบลบุพราหมณ์,บุพราหมณ์,นาดี,ปราจีนบุรี,14.28135,101.89706
25,EA01,วัดถ้ำยายปริก บ้านศาลเจ้าเก๋ง,ทําเทววงษ์,เกาะสีชัง,ชลบุรี,13.15635,100.8088
26,EA02,บริเวณหาดตาแหวน,นาเกลือ,บางละมุง,ชลบุรี,12.92777,100.78128
27,EA03,หาดจอมเทียน พัทยาใต้,หนองปรือ,บางละมุง,ชลบุรี,12.89143,100.87372
28,EA04,สำนักงานเทศบาลเมืองแสนสุข,แหลมแท่น,เมือง,ชลบุรี,13.2882,100.91309
29,EA05,สำนักงานเทศบาลตำบลบางทราย,บางทราย,เมือง,ชลบุรี,13.38435,100.98505
30,EB01,บ้านเขาสำเภาทอง ต.เพ อ.เมือง,เพ,เมือง,ระยอง,12.64557,101.41148
31,EB02,บ้านกรอกยายชา ต.เนินพระ อ.เมือง,เนินพระ,เมือง,ระยอง,12.68298,101.21121
32,EB03,ชุมชนตากวน-อ่าวประดู่ เขตเทศบาลเมืองมาบตาพุต,ห้วยโป่ง,เมือง,ระยอง,12.67402,101.17201
33,EB07,เทศบาลนครระยอง,ท่าประดู่,เมือง,ระยอง,12.66084,101.26081
34,EC01,บ้านทุ่งเพล,ฉมัน,มะขาม,จันทบุรี,12.84668,102.23127
35,EC02,บ้านแกลง ม10.,วังแซ้ม,มะขาม,จันทบุรี,12.78277,102.17756
36,EC03,ม. 6 ต.คลองพลู,คลองพลู,เขาคิชฌกูฏ,จันทบุรี,12.96821,102.07054
37,EC04,ชายหาดแหลมสิงห์,ปากน้ำแหลมสิงห์,แหลมสิงห์,จันทบุรี,12.4786,102.06792
38,EC05,ศาลาประจำหมู่บ้าน ม.5,คลองขุด,ท่าใหม่,จันทบุรี,12.55094,101.9253
39,EC09,ศูนย์ศึกษาการพัฒนาอ่าวคุ้งกระเบน,คลองขุด,ท่าใหม่,จันทบุรี,12.56907,101.90047
40,ED01,บ้านไก่แบ้ ม.4,เกาะช้าง,เกาะช้าง,ตราด,12.02083,102.29218
41,ED02,ม.7 บ้านทุ่งกระบอก,สะตอ,เขาสมิง,ตราด,12.53466,102.46923
42,ED03,วัดท่าน้ำล่าง ม.3,หนองบอน,บ่อไร่,ตราด,12.68134,102.46712
43,ED07,หาดบานชื่น,ไม้รูด,คลองใหญ่,ตราด,11.89957,102.78313
44,EE01,บ้านหุบเฉลา ม.8,เขากระปุก,ท่ายาง,เพชรบุรี,12.66298,99.6679
45,EE02,บ้านหนองน้ำดำ ม.4,ห้วยแม่เพรียง,แก่งกระจาน,เพชรบุรี,12.78707,99.56819
46,EE03,ขายหาดชะอำ (ข้างจุดชมวิว),ชะอำ,ชะอำ,เพชรบุรี,12.79389,99.9837
47,EE04,อบต.บางแก้ว,บางแก้ว,บ้านแหลม,เพชรบุรี,13.10927,100.06203
48,EE05,ข้างโรงแรมธนัฐธิชา เลค รีสอร์ท แอนด์ สปา,หนองหญ้าปล้อง,หนองหญ้าปล้อง,เพชรบุรี,13.18289,99.68008
49,EE06,โรงเรียนอนุบาลแก้วปัญญา เฉลิมพระเกียรติ 84 พรรษา,หนองชุมพล,เขาย้อย,เพชรบุรี,13.28926,99.81237
50,EF01,ชายหาดทางลงโรงแรมโซฟิเทล,หนองแก,หัวหิน,ประจวบคีรีขันธ์,12.56711,99.96295
51,EF02,บ้านปากน้ำปราณ ม.2,ปากน้ำปราณ,ปราณบุรี,ประจวบคีรีขันธ์,12.39712,99.99514
52,EF03,บ้านดอนสำราญ ม.1,แม่รำพึง,บางสะพาน,ประจวบคีรีขันธ์,11.20343,99.56171
53,EF04,ศาลาเอนกประสงค์ บ้านในล็อค ม.8,ทองมงคล,บางสะพาน,ประจวบคีรีขันธ์,11.18093,99.35519
54,EF05,บ้านวิ่งน้อย ม.8,สามกระทาย,กุยบุรี,ประจวบคีรีขันธ์,12.20189,99.80016
55,EF06,บ้านฟ้าประทาน,ห้วยสัตว์ใหญ่,หัวหิน,ประจวบคีรีขันธ์,11.51795,99.63789
56,EF07,ศาลาเอนกประสงค์บ้านช่องขวาง,ทับสะแก,ทับสะแก,ประจวบคีรีขันธ์,12.26837,99.76816
57,EF08,ศาลาเอนกประสงค์กลางหมู่บ้าน บ้านหนองเป่าปี่ ม.3,ศาลาลัย,สามร้อยยอด,ประจวบคีรีขันธ์,12.54576,99.53888
58,EF09,วัดวังมะเดือ,ห้วยทราย,เมือง,ประจวบคีรีขันธ์,11.7006,99.65981
59,EF10,ตรงข้าม อบต.วังก์พง,วังก์พง,ปราณบุรี,ประจวบคีรีขันธ์,12.40721,99.95257
60,EG01,หน้าสนามกีฬาอนุกูล บ้านบน ม.5,ปากน้ำ,เมือง,ชุมพร,10.43658,99.24394
61,EG02,หน้าสถานีวิทยุชุมชน ม.3,ปากน้ำ,หลังสวน,ชุมพร,10.43645,99.24429
62,EG03,บริเวณ ธ.ก.ส. สาขาปะทิว(เทศบาลตำบลสะพลีเดิม),สะพลี,ปะทิว,ชุมพร,10.58745,99.28069
63,EG06,อบต.ละแม,ละแม,ละแม,ชุมพร,9.76455,99.08622
64,EG07,อบต.ปากทรง,ปากทรง,พะโต๊ะ,ชุมพร,9.77515,98.69318
65,EG09,บ้านฉานเรน ม10.,ตะโก,ทุ่งตะโก,ชุมพร,10.07521,98.96364
66,EG10,บ้านปากน้ำละแม ม.1,ละแม,ละแม,ชุมพร,9.79237,99.13698
67,EG11,บ้านพันวาล 4 ม.20,รับร่อ,ท่าแซะ,ชุมพร,10.79587,98.97779
68,EG12,บ้านหาดทรายรี ม.8,ท่าหิน,สวี,ชุมพร,10.19246,99.18577
69,EH01,หาดเฉวง ม.2,บ่อผุด,เกาสมุย,สุราษฎร์ธานี,9.52335,100.05687
70,EH02,วัดเขาสุวรรณประดิษฐ์,ตอนสัก,ดอนสัก,สุราษฎร์ธานี,9.31915,99.68459
71,EH03,ท่าเทียบเรือท้องศาลา (ด้านหลังที่ทำการไปรษณีย์เกาะพะงัน),เกาะพะงัน,เกาะพะงัน,สุราษฎร์ธานี,9.70856,99.98793
72,EH04,ที่ทำการ อ.เกาะพะงัน ส่วนหน้า,เกาะเต่า,เกาะพะงัน,สุราษฎร์ธานี,10.07306,99.8289
73,EH05,บ้านแหลมโพธิ์,พุมเรียง,ไชยา,สุราษฎร์ธานี,9.37478,99.27046
74,EH09,บริเวณบ้านกำนัน,ตะกุกใต้,วิภาวดี,สุราษฎร์ธานี,9.12958,98.97438
75,EH10,อบต.น้ำหัก,น้ำหัก,คีรีรัตน์นิคม,สุราษฎร์ธานี,9.13485,98.95557
76,EJ01,บ้านในเพลา ม.8,ขนอม,ขนอม,นครศรีธรรมราช,9.12983,99.876
77,EJ02,บ้านคอเขา หมู่ 2,ขนอม,ขนอม,นครศรีธรรมราช,9.19953,99.8748
78,EJ03,บ้านแขวเภา ม.2,ท้องเนียน,ขนอม,นครศรีธรรมราช,9.2815,99.84373
79,EJ06,เทศบาลตำบลหน้าสตน,หน้าสตน,หัวไทร,นครศรีธรรมราช,8.02528,100.3167
80,EJ07,อบต. ท่าศาลา,ท่าศาลา,ท่าศาลา,นครศรีธรรมราช,8.66304,99.92796
81,EJ08,ศูนย์พัฒนาเด็กเล็ก เขาน้อยม 3,เขาน้อย,สิชล,นครศรีธรรมราช,8.9373,99.69946
82,EJ09,บ้านปลายอวน ม.5,พรหมโลก,พรหมคีรี,นครศรีธรรมราช,8.50888,99.80421
83,EJ10,องค์การบริหารส่วนตาบลกำโลน,กำโลน,ลานสกา,นครศรีธรรมราช,8.40798,99.79508
84,EK01,มัสยิดต้นสำหม้ง บ้านโคกไทร หมู่ที่ 1,คลองเฉลิม,กงหรา,พัทลุง,7.37969,99.96098
85,EK02,วัดป่าสน บ้านเขาคราม ม.10,บ้านนา,ศรีนครินทร์,พัทลุง,7.53,99.87608
86,EK05,องค์การบริหารส่วนตาบลชะมวง,ชะมวง,ควนขนุน,พัทลุง,7.74878,99.97958
87,EL01,ลานดนตรีหาดชลาทัศน์ (เขตเทศบาล),บ่อยาง,เมือง,สงขลา,7.19616,100.60721
88,EL02,บ้านปึก ม.10,นาทับ,จะนะ,สงขลา,7.09217,100.67961
89,EL06,บริเวณข้างศูนย์พัฒนาเด็กเล็ก บ้านบ่อโซน 11.7,สะกอม,จะนะ,สงขลา,6.95153,100.81199
90,EL07,หาดมหาราช,จะทิ้งพระ,สทิงพระ,สงขลา,7.47547,100.44519
91,EL08,โรงเรียนบ้านบาโหย ต.บาโหย อ.สะบ้าย้อย,บาโหย,สะบ้าย้อย,สงขลา,6.42045,100.91929
92,EL09,ริมหาดแก้วรีสอร์ท,ชิงโค,สิงหนคร,สงขลา,7.252599,100.550654
93,EM01,ร.ร.วัดหน้าถ้ำ บ้านหน้าถ้ำ ม.1,หน้าถ้า,เมือง,ยะลา,6.52704,101.22279
94,EM04,อบต. ตะโละหะลอ,ตะโละหะลอ,รามัน,ยะลา,6.4758,101.48597
95,EM05,อบต. ตาเนาะแมเราะ,ตาเนาะแมเราะ,เบตง,ยะลา,5.813722,101.08869
96,EM06,สวนสาธารณะ เย็นศิระ 3 ม.4,ตาเซะ,เมือง,ยะลา,6.674,101.28603
97,EN01,เทศบาลตำบลรูสะมิแล ม.6,รูสะมิแล,เมือง,ปัตตานี,6.89484,101.24669
98,ENO4,ชายหาดวาสุกรี,ตะลุบัน,สายบุรี,ปัตตานี,6.70833,101.64259
99,EN05,อบต.ตะโละกาโปร์,ตะโละกาโปร์,ยะหริง,ปัตตานี,6.89019,101.38541
100,EN06,ม.2,ปะกาฮะรัง,เมือง,ปัตตานี,6.83011,101.24569
101,EP01,หาดนราทัศน์,บางนาค,เมือง,นราธิวาส,6.44852,101.82106
102,EP04,บ้านทอนนาอืม ม12.,โคกเคียน,เมือง,นราธิวาส,6.53947,101.7494
103,EP05,อบต.ไพรวัน (หลังใหม่),ไพรวัน,ตากใบ,นราธิวาส,6.31781,101.96751
104,ET01,โรงเรียนบ้านวังรี,เขาฉกรรจ์,เขาฉกรรจ์,สระแก้ว,13.72308,102.08722
105,ET02,ป้ายทางเข้าอุทยานแห่งชาติปางสีดา,ท่าแยก,เมือง,สระแก้ว,13.97827,102.20292
106,FA01,หลังอาคารกองร้อย อส. อ.ปาย ที่ 4,เวียงใต้,ปาย,แม่ฮ่องสอน,19.35931,98.43967
107,FA02,หน่วยบริการประชาชน สตช. บ้านห้วยกุ้ง,ป่าโป่ง,สบเมย,แม่ฮ่องสอน,18.15047,98.132
108,FA03,วัดพระธาตุจอมมอญ บ้านพะมอลอ ม.9,บ้านกาศ,แม่สะเรียง,แม่ฮ่องสอน,18.18652,97.92088
109,FA04,สถานีสำรวจพลังงานลม บ้านหมอกจำแป่,หมอกจำแป่,เมือง,แม่ฮ่องสอน,19.43413,97.96616
110,FB01,บริเวณองค์การบริหารส่วนตำบลปากแคว (หลังเก่า) ริมแม่น้ำยม หมู่ที่ 1,ปากแคว,เมือง,สุโขทัย,17.02305,99.81905
111,FB02,บ้านน้ำตกสายรุ้ง หมู่ที่ 4,บ้านน้ำพุ,คีรีมาศ,สุโขทัย,16.82379,99.63163
112,FB03,ห้วยตม ต.บ้านตึก หมู่ที่ 7,บ้านตึก,ศรีสัชนาลัย,สุโขทัย,17.6697,99.9313
113,FB04,ศรีคีรีมาศ,ศรีคีรีมาศ,คีรีมาศ,สุโขทัย,16.84203,99.77258
114,FB05,บ้านโฟมประดู่ หมู่ 2,ศรีคีรีมาศ,คีรีมาศ,สุโขทัย,16.85241,99.7401
115,FB06,องค์การบริหารส่วนตำบลแม่สิน,แม่สิน,ศรีสัชนาลัย,สุโขทัย,17.71191,99.6088
116,FB07,วัดป่าคา,บ้านแก่ง,ศรีสัชนาลัย,สุโขทัย,17.55042,99.50598
117,FB08,องค์การบริหารส่วนตำบลกลางดง,กลางดง,ทุ่งเสลี่ยม,สุโขทัย,17.33359,99.53618
118,FC01,สุสานบ้านเด่น,วัดเกต,เมือง,เชียงใหม่,18.76953,99.00738
119,FC02,ข้างสำนักงานแขวงแม็งราย,ช้างคลาน,เมือง,เชียงใหม่,18.775,98.99521
120,FC03,โรงแรมอิมพิเรียลแม่ปิ,ช้างคลาน,เมือง,เชียงใหม่,18.78223,98.99683
121,FC04,บ้านยางหลวง,ท่าผา,แม่แจ่ม,เชียงใหม่,18.47365,98.37432
122,FC05,บริเวณวัดจอมแจ้ง,แม่ตื่น,อมก๋อย,เชียงใหม่,17.40592,98.46243
123,FC06,โรงพยาบาลส่งเสริมสุขภาพตำบล บ้านยาง,แม่งอน,ฝาง,เชียงใหม่,19.803604,99.099524
124,FD01,วัดบ้านเกาะทรายสามัคคี ม.7,แม่สาย,แม่สาย,เชียงราย,20.4455,99.88605
125,FD02,ที่ทำการ อบต.แม่เจดีย์,แม่เจดีย์,เวียงป่าเป้า,เชียงราย,19.19358,99.53432
126,FD03,บ้านโจ้โก้,ตับเต่า,เทิง,เชียงราย,19.75648,100.30944
127,FD04,บ้านท่าต้นแฟน ม.3,ป่าตึง,แม่จัน,เชียงราย,20.1533,99.8548
128,FD05,วัดหินแตก บ้านหินแตก,แม่สลองใน,แม่ฟ้าหลวง,เชียงราย,20.24993,99.6463
129,FE01,วัดสองแคว ม.3,ยกกระบัตร,สามเงา,ตาก,17.35428,99.07755
130,FF01,ม.7 อบต.ร่มเย็น,ร่มเย็น,เชียงคำ,พะเยา,19.53144,100.36856
131,FF02,บ้านปางปูเลาะ,ศรีถ้อย,แม่ใจ,พะเยา,19.35221,99.71685
132,FF03,บริเวณใกล้เทศบาลตำบลเจริญราษฎร์,เจริญราษฎร์,แม่ใจ,พะเยา,19.38919,99.77856
133,FF04,บ้านสันติสุข,ขุนควร,ปง,พะเยา,19.04485,100.48989
134,FF05,บ้านปางถ้า,ร่มเย็น,เชียงคำ,พะเยา,19.49983,100.45827
135,FF06,บ้านน้ำลาว,แม่ลาว,เชียงคำ,พะเยา,19.41994,100.43869
136,FG01,บริเวณ ร.ร.สตรีศรีน่าน (ติดสะพานพัฒนาภาคเหนือ),ในเวียง,เมือง,น่าน,18.77527,100.77906
137,FG02,บริเวณศูนย์พัฒนาเด็กเล็กตำบลพระพุทธบาท,พระพุทธบาท,เชียงกลาง,น่าน,19.27228,100.83912
138,FG03,ที่สาธารณะหมู่บ้าน,ปัว,ปัว,น่าน,19.1872,100.91402
139,FG04,ที่สาธารณะบ้านท่าวังผา,เทศบาลท่าวังผา,ท่าวังผา,น่าน,19.104,100.80575
140,FG05,บริเวณหลัง อบต.ท่าน้าว,ท่าน้าว,ภูเพียง,น่าน,18.73963,100.76367
141,FG06,สวนสาธารณะบ้านป่ากล้วย,กลางเวียง,เวียงสา,น่าน,18.56844,100.75622
142,FG09,หน้าสุสานบ้านน้ำลัด ม.1,นาปัง,ภูเพียง,น่าน,18.712917,100.76203
143,FH01,บ้านบ่อโพธิ์ ม.1,บ่อโพธิ์,นครไทย,พิษณุโลก,17.233,101.05363
144,FH04,วัดบ้านปากรอง,ชาติตระการ,ชาติตระการ,พิษณุโลก,17.3291,100.70309
145,FH05,บริเวณโรงเรียนบ้านวังนกแอ่น,วังนกแอ่น,วังทอง,พิษณุโลก,16.84989,100.50526
146,FH06,โรงเรียนวัดปลวกง่าม,ชมพู,เนินมะปราง,พิษณุโลก,16.686722,100.60042
147,FJ01,บ้านปากแดง หมู่ที่ 4,วังยาว,ด่านซ้าย,เลย,17.17844,101.34597
148,FJ02,บ้านเหมืองแบ่ง ม.11,วังบาล,หล่มเก่า,เพชรบูรณ์,16.91555,101.17081
149,FJ03,วัดสันติวิหาร,น้ำก้อ,หล่มสัก,เพชรบูรณ์,16.79674,101.1768
150,FJ04,บ้านธารทิพย์ ม.12,ทุ่งน้ำเต้า,หล่มสัก,เพชรบูรณ์,16.6627,101.13722
151,FJ05,บ้านโพธิ์งาม ม.5,ท่าพล,เมือง,เพชรบูรณ์,16.59084,101.1334
152,FJ06,บ้านซับเปิบ ม.3,ซับเป็บ,วังโป่ง,เพชรบูรณ์,16.35413,100.93446
153,FK01,บ้านห้วยพญา ม.5,นางพญา,ท่าปลา,อุตรดิตถ์,17.98647,100.39887
154,FK02,บ้านผามูบ ม.7,แม่พูล,ลับแล,อุตรดิตถ์,17.72585,100.01301
155,FL01,บ้านทาปลาดุก หมู่ 5,ทาปลาดุก,แม่ทา,ลำพูน,18.49537,99.20303
156,FL02,บ้านทาทุ่งหลวง หมู่ที่ 1,ทาทุ่งหลวง,แม่ทา,ลำพูน,18.42154,99.01358
157,FL06,วัดพระพุทธบาทผาหนาม หมู่ที่ 6,แม่ตีน,ลี้,ลำพูน,17.83836,98.92883
158,FL07,องค์การบริหารส่วนตำบลเวียงแก้ว,เวียงแก้ว,ลี้,ลำพูน,17.93604,98.90619
159,FL08,เทศบาลตำบลวังผาง,วังผาง,เวียงหนองล่อง,ลำพูน,18.4257,98.73936
160,FM01,บ้านกะเหรี่ยงน้ำตก (บริเวณบ้านสวนอุดมพร),คลองลานพัฒนา,คลองลาน,กำแพงเพชร,16.13025,99.292583
161,FM05,บ้านเลขที่ 22/1 บ้านทุ่งพุทรา ม.9,โกสัมพี,โกสัมพีนคร,กำแพงเพชร,16.62482,99.25152
162,FN01,ม.9 บ้านกิวนาค,ไผ่โทน,ร้องกวาง,แพร่,18.42663,100.43769
163,FN02,ม.10 บ้านนาพูนพัฒนา,นาพูน,วังชิ้น,แพร่,17.828,99.76558
164,FN03,เทศบาลตำบลเวียงต้า,เวียงต้า,สอง,แพร่,18.261656,99.990015
165,FN04,สนง. อบต. ห้วยไร่,ห้วยไร่,เด่นชัย,แพร่,17.91325,100.06668
166,FN05,วัดดอนแก้ว,สะเอียบ,สอง,แพร่,18.731,100.24261
167,FP01,อบต.แม่สุก,แม่สุก,แจ้ห่ม,ลำปาง,18.78545,99.57706
168,FP02,เทศบาลตำบลเวียงมอก,เวียงมอก,เถิน,ลำปาง,17.47158,99.35788
169,FT01,อบต. ป่ามะคาบ,ป่ามะคาบ,เมือง,พิจิตร,16.512829,100.37659
170,FT02,อบต. งิ้วราย,งิ้วราย,ตะพานหิน,พิจิตร,16.24575,100.41275
171,MA03,เทศบาลเมืองสกลนคร,ธาตุเชิงชุม,เมืองสกลนคร,สกลนคร,17.15388,104.14175
172,MA04,ที่ว่าการอำเภอสว่างแดนดิน,สว่างแดนดิน,สว่างแดนดิน,สกลนคร,17.47547,103.45792
173,MA05,ที่ว่าการอำเภอภูพาน,โคกภู,ภูพาน,สกลนคร,16.99972,103.96478
174,MB03,องค์การบริหารส่วนตำบลห้วยจันทร์,ห้วยจันทร์,ขุนหาญ,ศรีสะเกษ,14.58997,104.3915
175,MC03,เทศบาลตำบลท่าตูม,ท่าตูม,ท่าตูม,สุรินทร์,15.31907,103.67412
176,MD03,ศูนย์พัฒนาเด็กเล็กบ้านดอนกลอย 11.8,ค้อเหนือ,เมือง,ยโสธร,15.83947,104.0462
177,NA01,ที่ทำการ อบต.วังปลาป้อม,วังปลาป้อม,นาวัง,หนองบัวลำภู,17.425358,102.0017
178,NA02,วัดกัณธาราม ม.4 บ้านหนองผือ,หนองแก,ศรีบุญเรือง,หนองบัวลำภู,17.04955,102.28831
179,NA03,ศาลาเอนกประสงค์ บ้านตาดไฮ ม.5,โคกม่วง,โนนสัง,หนองบัวลำภู,16.906719,102.412417
180,NB01,อบต.ไผ่ล้อม,ไผ่ล้อม,บ้านแพง,นครพนม,17.98788,104.18133
181,NB02,อบต.โนนตาล ท่าอุเทน,ท่าอุเทน,ท่าอุเทน,นครพนม,17.54613,104.58247
182,NB03,อบต.นาแก,นาแก,นาแก,นครพนม,16.929878,104.516155
183,NC01,อบ.ตดินจี,ดินจี,คำม่วง,กาฬสินธุ์,16.93589,103.73299
184,NC02,ศูนย์พัฒนาเด็กเล็กบ้านขมิ้น,ผาเสวย,สมเด็จ,กาฬสินธุ์,16.77555,103.84005
185,NC03,อบต.ลำชี,ลำชี,ฆ้องชัย,กาฬสินธุ์,16.21338,103.48117
186,ND01,วัดบ้านหนองแค,ม่วงลาด,จังหาร,ร้อยเอ็ด,16.19463,103.516
187,NEO1,ที่ว่าการอำเภอพิบูลมังสาหาร,พิบูล,พิบูลย์มังสาหาร,อุบลราชธานี,15.24511,105.22867
188,NE02,บริเวณสนามข้างองค์การบริหารส่วนตำบลหนามแท่ง,หนามแห่ง,ศรีเมืองใหม่,อุบลราชธานี,15.574626,105.472995
189,NE05,สถานที่ชุมชนแสนตอ,ในเมือง,เมืองอุบลราชธานี,อุบลราชธานี,15.22919,104.83664
190,NF01,บ้านท่ามะปราง,หมูสี,ปากช่อง,นครราชสีมา,14.516389,101.37717
191,NF04,วัดบ้านลำเชิงไกร ม.9,โคกสูง,เมืองนครราชสีมา,นครราชสีมา,15.12747,102.09277
192,NG01,ศูนย์พัฒนาเด็กประถมวัย บ้านหินปูน,เขวาใหญ่,กันทรวิชัย,มหาสารคาม,16.19063,103.16844
193,NH01,ม.8 บ้านท่านางแมว,ท่านางแนว,แวงน้อย,ขอนแก่น,15.85654,102.33189
194,NJ01,บ้านวังเลา ม.1,โนนทอง,นายูง,อุดรธานี,17.97177,102.24708
195,NJ02,บ้านเพิ่ม ม.2,นาแค,นายูง,อุดรธานี,17.97677,102.07817
196,NJ03,โรงเรียนบ้านนาเกิน,หนองแวง,น้ำโสม,อุดรธานี,17.86052,102.25653
197,NK03,โรงเรียนบ้านนาสีดา,ชานุมาน,ชานุมาน,อำนาจเจริญ,16.26422,104.98539
198,NK04,วัดดอนว่าน,หัวตะพาน,หัวตะพาน,อำนาจเจริญ,15.71734,104.42702
199,NK05,ที่ทำการ อบต.นาวัง,นาวัง,เมืองอำนาจเจริญ,อำนาจเจริญ,15.9992,104.5675
200,NM03,อุทยานแห่งชาติน้ำตกตาดโตน,ห้วยต้อน,เมือง,ชัยภูมิ,15.98494,102.03861
201,NM04,อุทยานแห่งชาติน้ำตกไทรทอง,วังตะเข้,หนองระเหว,ชัยภูมิ,15.87957,101.50668
202,NN04,ศูนย์พัฒนาเด็กเล็ก ม.5,ชัยพฤกษ์,เมืองเลย,เลย,17.50796,101.73758
203,NP03,แก่งกระเบา,ป่งขาม,หว้านใหญ่,มุกดาหาร,16.80213,104.73306
204,NP04,สนามกีฬาประจำจังหวัด,มุกดาหาร,เมือง,มุกดาหาร,16.54344,104.71925
205,NP05,วัดหนองตะแบง ม.7,วง,หนองสูง,มุกดาหาร,16.44786,104.44583
206,NT03,อบ.ตหนองเดิน,หนองเดิน,บุ่งคล้า,บึงกาฬ,18.318333,103.96633
207,NT04,อบต.นางิ้ว,นางิ้ว,สังคม,หนองคาย,18.099361,102.14844
208,NT05,อบ.ตสังคม,สังคม,สังคม,หนองคาย,18.103417,102.23456
209,WB01,อ่าวต้นไทร (พีพี 1),อ่าวนาง,เมือง,กระบี่,7.73993,98.77328
210,WB02,บ้านโละบาเกา (พีพี 2),อ่าวนาง,เมือง,กระบี่,7.74357,98.77459
211,WB03,หาดอ่าวนาง,อ่าวนาง,เมือง,กระบี่,8.03245,98.82048
212,WB04,อุทยานหาดนพรัตน์ธารา,อ่าวนาง,เมือง,กระบี่,8.04598,98.80252
213,WB05,หาดนพรัตน์ธารา,อ่าวนาง,เมือง,กระบี่,8.03935,98.81544
214,WB06,บ้านคลองม่วง,หนองทะเล,เมือง,กระบี่,8.04982,98.75893
215,WB07,โรงเรียนบ้านแหลมโพธิ์,ไสไทย,เมือง,กระบี่,8.03235,98.89185
216,WB08,บ้านคลองนิน,เกาะลันตาใหญ่,เกาะลันตา,กระบี่,7.54491,99.04644
217,WB09,บ้านศาลาด่าน,ศาลาด่าน,เกาะลันตา,กระบี่,7.64735,99.03523
218,WB10,บ้านเลขที่ 58 ม.1 บ้านคลองเตาะ,เกาะศรีบอยา,เหนือคลอง,กระบี่,7.91494,98.98441
219,WB11,มัสยิดบ้านติงไทร,เกาะศรีบอยา,เหนือคลอง,กระบี่,7.81532,98.96847
220,WB12,อ่าวไร่เลย์,อ่าวนาง,เมือง,กระบี่,8.0093,98.84041
221,WB13,บ้านแหลมสัก,แหลมสัก,อ่าวลึก,กระบี่,8.02893,98.92782
222,WB14,บ้านบากัน,อ่าวลึกน้อย,อ่าวลึก,กระบี่,8.30893,98.71909
223,WB15,บ้านท่าเลน,เขาทอง,เมือง,กระบี่,8.14278,98.74619
224,WB16,บ้านคลองประสงค์ ม.2,คลองประสงค์,เมือง,กระบี่,8.029225,98.92804
225,WB17,อ่าวต้นไทร เกาะพีพี,อ่าวนาง,เมือง,กระบี่,7.7388,98.77024
226,WB18,เกาะปอดะ,อ่าวนาง,เมือง,กระบี่,7.97034,98.80991
227,WB19,เกาะห้อง,เขาทอง,เมือง,กระบี่,8.07922,98.68048
228,WB20,บ้านเกาะกวาง,หนองทะเล,เมือง,กระบี่,8.07449,98.74402
229,WB21,บ้านแหลมกรวด,คลองขาน,เหนือคลอง,กระบี่,7.89155,99.02612
230,WB22,ท่าเทียบเรือบ้านเกาะปู,เกาะศรีบอยา,เหนือคลอง,กระบี่,7.84892,98.97363
231,WB23,โรงเรียนบ้านเกาะจำ,ตลิ่งชัน,เหนือคลอง,กระบี่,7.79306,98.99129
232,WB24,บ้านหาดยาว,ตลิ่งชัน,เหนือคลอง,กระบี่,7.97454,98.94955
233,WB25,บ้านท่ามะพร้าว,คลองพล,คลองท่อม,กระบี่,7.72392,99.18959
234,WB26,บ้านบ่อม่วง,ทรายขาว,คลองท่อม,กระบี่,7.67705,99.19907
235,WB27,โรงเรียนบ้านปากคลอง,เกาะกลาง,เกาะลันตา,กระบี่,7.76706,99.02416
236,WB28,บ้านลันตาน้อย,เกาะลันตาน้อย,เกาะลันตา,กระบี่,7.6715,99.04283
237,WB29,บ้านคลองดาว,ศาลาด่าน,เกาะลันตา,กระบี่,7.62543,99.03235
238,WB30,บ้านคลองโตบ,เกาะลันตาใหญ่,เกาะลันตา,กระบี่,7.5495,99.04501
239,WB31,เทศบาลตำบลเกาะลันตาใหญ่,เกาะลันตาใหญ่,เกาะลันตา,กระบี่,7.53044,99.09495
240,WB32,เกาะรอก,เกาะลันตาใหญ่,เกาะลันตา,กระบี่,7.21727,99.06587
241,WF01,สถานีตรวจอากาศคึกคัก ม.3,คึกคัก,ตะกั่วป่า,พังงา,8.69039,98.24146
242,WF02,ที่สาธารณะประโยชน์ ม.2,ลำแก่น,ท้ายเหมือง,พังงา,8.61479,98.23891
243,WF03,บ้านปากวีป ม.2,คึกคัก,ตะกั่วป่า,พังงา,8.75393,98.25726
244,WF04,ร.ร.ราชประชานุเคราะห์ 35 ม.8 บ้านบางสักใต้,บางม่วง,ตะกั่วป่า,พังงา,8.772897,98.265978
245,WF05,หาดทับตะวัน บ้านไทยใหม่ ม.7,บางม่วง,ตะกั่วป่า,พังงา,8.8039,98.26182
246,WF06,มัสยิดนูรุดอิสลาม บ้านในไร่ ม.7,นาเตย,ท้ายเหมือง,พังงา,8.31533,98.2709
247,WF07,แหลมประการัง บ้านบางขยะ 11.2,คึกคัก,ตะกั่วป่า,พังงา,8.727118,98.225669
248,WF08,ศูนย์เอนกประสงค์ บ้านทับละมุ ม.5,ลำแก่น,ท้ายเหมือง,พังงา,8.56979,98.22726
249,WF09,อนุสรณ์ 5 ธันวา บ้านน้ำเค็ม ม.2,บางม่วง,ตะกั่วป่า,พังงา,8.85776,98.27307
250,WF10,บ้านทุ่งนางดำ ม.5,คุระ,คุระบุรี,พังงา,9.25446,98.36848
251,WF11,บริเวณปากซอยแหลมบ่อนไก่,เกาะคอเขา,ตะกั่วป่า,พังงา,9.0014,98.2575
252,WF12,บริเวณอำเภอเก่า ม.1,เกาะคอเขา,ตะกั่วป่า,พังงา,8.99643,98.30856
253,WF13,ร.ร.บ้านทุ่งดาบ ม.1,เกาะพระทอง,คุระบุรี,พังงา,9.03583,98.25609
254,WF14,อุทยานแห่งชาติ หมู่เกาะสุรินทร์เหนือ,เกาะพระทอง,คุระบุรี,พังงา,9.43302,97.8695
255,WF15,เกาะคอเขารีสอร์ท ม.4,เกาะคอเขา,ตะกั่วป่า,พังงา,8.90536,98.25635
256,WF16,หาดนางทอง บางหลาโอน,คึกคัก,ตะกั่วป่า,พังงา,8.64512,98.24721
257,WF17,ร.ร.บ้านน้ำเค็ม,บางม่วง,ตะกั่วป่า,พังงา,8.85791,98.27554
258,WF18,หาดบางเนียง,คึกคัก,ตะกั่วป่า,พังงา,8.65879,98.246739
259,WF31,ท่าเทียบเรือโต๊ะจาก หมู่ 3,พรุใน,เกาะยาว,พังงา,7.93324,98.57492
260,WF35,โรงซ่อมเรือ (ท่าเรือทุ่งละออง) ม.4,บางวัน,คุระบุรี,พังงา,9.0441,98.322775
261,WF36,สำนักงานป้องกันและบรรเทาสาธารณภัย องค์การบริหารส่วนตำบลคุระ (ท่าเทียบเรือทุ่งนางดำ) ม.3,คุระ,คุระบุรี,พังงา,9.22413,98.37225
262,WF37,บ้านนาใต้ ม.6,โคกกลอย,ตะกั่วทุ่ง,พังงา,8.278301,98.290301
263,WF38,บ้านป่าทราย หมู่ที่ 5,เกาะยาวน้อย,เกาะยาว,พังงา,8.102932,98.623174
264,WF39,อบต.ท้ายเหมือง ม.9,ท้ายเหมือง,ท้ายเหมือง,พังงา,8.40746,98.245491
265,WH01,ท่าเทียบเรือหาดราไวย์,ราไวย์,เมือง,ภูเก็ต,7.7751,98.32742
266,WH02,บริเวณโรงเรียนเกาะโหลน,ราไวย์,เมือง,ภูเก็ต,7.79025,98.359306
267,WH03,บริเวณท่าเรืออ่าวฉลอง,ฉลอง,เมือง,ภูเก็ต,7.82148,98.34422
268,WH04,ศูนย์พัฒนาเด็กเล็กเทศบาลรัษฎา (แหลมตุ๊กแก),รัษฎา,เมือง,ภูเก็ต,7.87586,98.42141
269,WH05,หาดกะตะ (ด้านข้างเทศบาลกะรน),กะรน,เมือง,ภูเก็ต,7.816567,98.299772
270,WH06,ข้าง อปพร. (หาดกะรน),กะรน,เมือง,ภูเก็ต,7.83975,98.29503
271,WH07,ติดกับโรงแรมกมลา บีช ฮานีลากูน่าภูเก็ต,กมลา,กะทู้,ภูเก็ต,7.95373,98.2828
272,WH08,บริเวณโรงเรียนวัดมงคลวราราม,สาคู,ถลาง,ภูเก็ต,8.0944,98.30165
273,WH09,หาดไม้ขาว,ไม้ขาว,ถลาง,ภูเก็ต,8.126028,98.301509
274,WH11,ทางขึ้นจุดชมวิวเขาขาด,วิชิต,เมือง,ภูเก็ต,7.82184,98.38451
275,WH12,สวนสาธารณะ บ้านสะพานหิน,ตลาดใหญ่,เมือง,ภูเก็ต,7.864416,98.400871
276,WH13,อ่าวปอ,ป่าคลอก,ถลาง,ภูเก็ต,8.06091,98.43181
277,WH14,หาดในหาน,ราไวย์,เมือง,ภูเก็ต,7.77687,98.30589
278,WH15,ติดกับโรงแรมกะตะธานี,กะรน,เมือง,ภูเก็ต,7.8053,98.29932
279,WH16,ประปาเกาะราชาใหญ่,ราไวย์,เมือง,ภูเก็ต,7.60568,98.36861
280,WH17,โรงแรมชีวิว หาดป่าตอง,ป่าตอง,กะทู้,ภูเก็ต,7.88548,98.2875
281,WH18,ศูนย์ช่วยเหลือนักท่องเที่ยว หาดป่าตอง,ป่าตอง,กะทู้,ภูเก็ต,7.89589,98.295488
282,WH19,โรงแรมซันเซ็ท หาดป่าตอง,ป่าตอง,กะทู้,ภูเก็ต,7.91286,98.294596
283,WJ01,บ้านทะเลนอก,กำพวน,สุขสำราญ,ระนอง,9.46331,98.44168
284,WJ02,บ้านบางเบน,ม่วงกลาง,กะเปอร์,ระนอง,9.60505,98.46833
285,WJ03,ศูนย์บริการสุขภาพตำบลกำพวน หมู่ 7,กำพวน,สุขสำราญ,ระนอง,9.37698,98.40524
286,WJ04,หาดประพาส,กำพวน,สุขสำราญ,ระนอง,9.37056,98.39706
287,WJ05,บริเวณโรงเรียนบ้านแหลมนา,นาคา,สุขสำราญ,ระนอง,9.56274,98.46943
288,WJ06,บ้านท่ากลาง ม.4,กำพวน,สุขสำราญ,ระนอง,9.38905,98.4195
289,WJ07,บ้านปากคลอง ม.1,ปากน้ำ,เมือง,ระนอง,9.94259,98.594444
290,WJ08,บ้านบางมัน ม.1,นาคา,สุขสำราญ,ระนอง,9.43825,98.43719
291,WJ09,บ้านบางกล้วยนอก ม.3,นาคา,สุขสำราญ,ระนอง,9.39741,98.4118
292,WJ10,บ้านเกาะทรายดำหน้านอก ม.5,หงาว,เมือง,ระนอง,9.76367,98.51185
293,WJ11,บ้านเกาะพยาม ม.1,เกาะพยาม,เมือง,ระนอง,9.95419,98.62352
294,WJ12,บ้านเกาะช้าง ม.2,เกาะพยาม,เมือง,ระนอง,9.8413,98.44311
295,WJ13,บ้านเกาะคณฑี ม.2,ปากน้ำ,เมือง,ระนอง,9.74225,98.39963
296,WJ25,ท่าเทียบเรือแหลมพ่อตา บ้านบางหิน,บางหิน,กะเปอร์,ระนอง,9.561058,98.560315
297,WJ26,อาคารหลบภัยสึนามิ บ้านหินช้าง ม.3,ปากน้ำ,เมืองระนอง,ระนอง,10.053851,98.642657
298,WK01,บ้านปากบารา หมู่ที่ 2,ปากน้ำ,ละงู,สตูล,6.85533,99.72572
299,WK02,บ้านบ่อเจ็ดลูก หมู่ที่ 1,ปากน้ำ,ละงู,สตูล,6.87175,99.7008
300,WK03,บ้านตันหยงกาโบย หมู่ที่ 2,เมือง,เมือง,สตูล,6.5083,100.09643
301,WK04,อุทยานแห่งชาติเกาะตารุเตา,ปากน้ำ,เมือง,สตูล,6.49141,99.30883
302,WK05,เกาะหลีเป๊ะ หมู่ที่ 7,เกาะสาหร่าย,เมือง,สตูล,6.491799,99.308489
303,WK06,โรงเรียนบ้านบุโบย หมู่ที่ 3,แหลมสน,ละงู,สตูล,6.94883,99.6909
304,WK07,บ้านมะหลัง ม.1,ทุ่งบุหลัง,ทุ่งหว้า,สตูล,7.06881,99.69308
305,WK08,บ้านทุ่งริ้น ม.1,สาคร,ท่าแพ,สตูล,6.74664,99.91931
306,WK09,โรงเรียนบ้านเกาะสาหร่ายชัยพัฒนา,เกาะสาหร่าย,เมือง,สตูล,6.66597,99.85502
307,WK10,ข้างโรงสีข้าวชุมชนบ้านเกาะระยะโตดนุ้ย หมู่ที่ 4,เกาะสาหร่าย,เมือง,สตูล,6.68019,99.86691
308,WK11,โรงเรียนบ้านเกาะบุโหลน (ดอน) หมู่ที่ 3,ปากน้ำ,ละงู,สตูล,6.85741,99.59166
309,WK12,บ้านตันหยงกลิง หมู่ที่ 3,เกาะสาหร่าย,เมือง,สตูล,6.70497,99.86338
310,WK13,บ้านเกาะยาว หมู่ที่,ปูยู,เมือง,สตูล,6.46635,100.07375
311,WK14,หาดราไวย์ หมู่ที่ 4,ขอนคลาน,ทุ่งหว้า,สตูล,6.9999,99.67137
312,WK15,บ้านตันหยงอุมา หมู่ 1,เกาะสาหร่าย,เมือง,สตูล,6.73182,99.8541
313,WK16,บ้านบากันใหญ่ หมู่ 2,เกาะสาหร่าย,เมือง,สตูล,6.71524,99.84344
314,WK17,บ้านสนกลาง หมู่ 4,แหลมสน,ละงู,สตูล,6.91612,99.68516
315,WK18,บ้านตันหยงโป,ตันหยงโป,เมือง,สตูล,6.59136,99.95687
316,WK19,บ้านหาดทรายยาว,ตันหยงโป,เมือง,สตูล,6.61625,99.95156
317,WK20,บ้านปากบาง หมู่ 2,ละงู,ละงู,สตูล,6.8315,99.78995
318,WK21,โรงเรียนบ้านตันหยงละไน้,แหลมสน,ละงู,สตูล,6.96584,99.68706
319,WK22,บ้านทุ่งสะโบ๊ะ หมู่ 2,ทุ่งบุหลัง,ทุ่งหว้า,สตูล,7.02563,99.67624
320,WN01,ร.ร.บ้านแหลมขาม,เขาไม้แก้ว,สิเกา,ตรัง,7.6252,99.27065
321,WN02,อ่าวพังกา ม.2,เกาะลิบง,กันตัง,ตรัง,7.36376,99.30141
322,WN03,เกาะกระดาน,เกาะลิบง,กันตัง,ตรัง,7.30898,99.2592
323,WN04,โรงเรียนบ้านเกาะมุกต์,เกาะลิบง,กันตัง,ตรัง,7.35633,99.29722
324,WN05,เกาะสุกร,เกาะสุกร,ปะเหลียน,ตรัง,7.09061,99.60333
325,WN06,โรงเรียนบ้านหลังเขา ม. 5,เกาะลิบง,กันตัง,ตรัง,7.22447,99.36708
326,WN07,เกาะหลาวเหลียงเหนือ,เกาะสุกร,ปะเหลียน,ตรัง,7.12053,99.42537
327,WN08,เกาะหลาวเหลียงใต้,เกาะสุกร,ปะเหลียน,ตรัง,7.10888,99.42997
328,WN09,เกาะเภตรา,เกาะสุกร,ปะเหลียน,ตรัง,7.04404,99.47344
329,WN10,อบต.ไม้ฝาด,ไม้ฝาด,สิเกา,ตรัง,7.495096,99.328118
330,WN11,หลังปั๊มน้ำมัน บริเวณหาดยาวเจ้าไหม,เกาะลิบง,กันตัง,ตรัง,7.31028,99.39995
331,WN12,บ้านทุ่งรวงทอง ม.4,ท่าข้าม,ปะเหลียน,ตรัง,7.11672,99.66692
332,WN13,บ้านหาดทรายทอง ม.4,เกาะสุกร,ปะเหลียน,ตรัง,7.10948,99.57909
333,WN14,บ้านหยงสตาร์ ม.2,ท่าข้าม,ปะเหลียน,ตรัง,7.12854,99.69396
334,WN15,บ้านบ่อหิน ม.6,บ่อหิน,สิเกา,ตรัง,7.578901,99.290582
335,WN16,หาดราชมงคล ม.3,ไม้ฝาด,สิเกา,ตรัง,7.52301,99.30815
336,WN17,บริเวณหาดปากเมง ม.3,ไม้ฝาด,สิเกา,ตรัง,7.48507,99.33151
337,WN18,หาดเจ้าไหม ม.5,ไม้ฝาด,สิเกา,ตรัง,7.42329,99.34755
338,WN19,บ้านแหลมไทร 11.3,เขาไม้แก้ว,สิเกา,ตรัง,7.62954,99.24402
339,WN20,บ้านแหลมปอ ม.5,หาดสำราญ,หาดสำราญ,ตรัง,7.23547,99.53647
340,WN21,บ้านทุ่งเปลว ม.3,ตะเสะ,หาดสำราญ,ตรัง,7.16717,99.57584
341,WN22,บ้านบาตูปูเต๊ะ ม.4,เกาะลิบง,กันตัง,ตรัง,7.23057,99.3929
342,WN23,โรงเรียนบ้านมดตะนอย ม.3,เกาะลิบง,กันตัง,ตรัง,7.30639,99.41944
343,WN24,ท่าเทียบเรือหาดปากเมง ม.4,ไม้ฝาด,สิเกา,ตรัง,7.50673,99.31397
344,WN25,บ้านโคกสะท้อน ม.1,เกาะลิบง,กันตัง,ตรัง,7.30798,99.39537
345,EA08,ศูนย์บริการนักท่องเที่ยว ม.4,อ่างศิลา,เมือง,ชลบุรี,13.33798,100.92775
346,EA09,สวนสาธารณะ อบต.คลองตำหรุ หมู่ 1,คลองตำหรุ,เมือง,ชลบุรี,13.4449,100.99258
347,EA10,สวนเฉลิมพระเกียรติ ร.9 ชายทะเลบางพระ หมู่ 1,บางพระ,ศรีราชา,ชลบุรี,13.20902,100.93472
348,EA11,สวนสาธารณะเทศบาลเมืองศรีราชา,ศรีราชา,ศรีราชา,ชลบุรี,13.16933,100.9248
349,EB06,เทศบาลตำบลสุนทรภู่ หมู่ 1,ชากพง,แกลง,ระยอง,12.65972,101.5938
350,EB08,อบต.ตะพง หมู่ 12,ตะพง,เมือง,ระยอง,12.64633,101.35117
351,EB09,บริเวณอนุสรณ์สถานเรือรบประแส หมู่ 8,ปากน้ำประแส,แกลง,ระยอง,12.6967,101.7041
352,EB10,เทศบาลตำบลแกลงกะเฉด หมู่ 6,แกลงกะเฉด,เมือง,ระยอง,12.62839,101.49758
353,EC08,ปากน้ำแขมหนู ม.9,ตะกาดเง้า,ท่าใหม่,จันทบุรี,12.54221,101.95822
354,EC10,คุ้งวิมาน ม.7,สนามไขย,นายายอาม,จันทบุรี,12.60523,101.87471
355,EC11,อบต.บางกะไชย,บางกะไชย,แหลมสิงห์,จันทบุรี,12.53176,102.01043
356,EC12,บริเวณท่าเทียบเรือประมง ม.1,กระแจะ,นายายอาม,จันทบุรี,12.65953,101.84151
357,ED06,หาดลานทราย ม.2,แหลมกลัด,เมือง,ตราด,12.15202,102.62511
358,ED08,อ่าวตาลคู่ ม.1,บางปิด,แหลมงอบ,ตราด,12.20387,102.27982
359,ED09,อาคารเอนกประสงค์ ม.2 เทศบาลตำบลน้ำเชี่ยว,น้ำเชี่ยว,แหลมงอบ,ตราด,12.1902,102.46231
360,ED10,อนุสรณ์สถานยุทธนาวี ม.1,แหลมงอบ,แหลมงอบ,ตราด,12.17668,102.3902